{
  "postOffices": [
    {
      "parking": "Street",
      "hours": [
        {
          "weekdayHours": "9:00 AM - 6:00 PM"
        },
        {
          "saturdayHours": "9:00 AM - 3:00 PM"
        },
        {
          "sundayHours": "Closed"
        }
      ],
      "distance": "0.54 mi",
      "streetAddress": "606 E JUNEAU AVE",
      "city": "MILWAUKEE",
      "phone": "414-289-0809",
      "name": "JUNEAU",
      "zip4": "9998",
      "state": "WI",
      "zip5": "53202"
    },
    {
      "parking": "Lot",
      "hours": [
        {
          "weekdayHours": "9:00 AM - 8:00 PM"
        },
        {
          "saturdayHours": "Closed"
        },
        {
          "sundayHours": "Closed"
        }
      ],
      "distance": "0.66 mi",
      "streetAddress": "345 W SAINT PAUL AVE",
      "city": "MILWAUKEE",
      "phone": "414-270-2308",
      "name": "MILWAUKEE",
      "zip4": "3099",
      "state": "WI",
      "zip5": "53203"
    },
    {
      "parking": "None",
      "hours": [
        {
          "weekdayHours": "8:30 AM - 5:00 PM"
        },
        {
          "saturdayHours": "8:30 AM - 12:00 PM"
        },
        {
          "sundayHours": "Closed"
        }
      ],
      "distance": "1.38 mi",
      "streetAddress": "1301 N 12TH ST",
      "city": "MILWAUKEE",
      "phone": "414-342-3335",
      "name": "HILLTOP",
      "zip4": "9998",
      "state": "WI",
      "zip5": "53205"
    },
    {
      "parking": "Street",
      "hours": [
        {
          "weekdayHours": "8:00 AM - 5:00 PM"
        },
        {
          "saturdayHours": "8:30 AM - 12:00 PM"
        },
        {
          "sundayHours": "Closed"
        }
      ],
      "distance": "1.86 mi",
      "streetAddress": "1416 S 11TH ST",
      "city": "MILWAUKEE",
      "phone": "414-671-4581",
      "name": "HARBOR",
      "zip4": "9998",
      "state": "WI",
      "zip5": "53204"
    },
    {
      "parking": "Street",
      "hours": [
        {
          "weekdayHours": "9:00 AM - 4:30 PM"
        },
        {
          "saturdayHours": "9:00 AM - 12:00 PM"
        },
        {
          "sundayHours": "Closed"
        }
      ],
      "distance": "2.03 mi",
      "streetAddress": "2650 N DR MARTIN LUTHER KING JR DR",
      "city": "MILWAUKEE",
      "phone": "414-562-1449",
      "name": "DR MARTIN LUTHER KING JR",
      "zip4": "9998",
      "state": "WI",
      "zip5": "53212"
    },
    {
      "parking": "Street",
      "hours": [
        {
          "weekdayHours": "8:30 AM - 4:30 PM"
        },
        {
          "saturdayHours": "9:00 AM - 12:00 PM"
        },
        {
          "sundayHours": "Closed"
        }
      ],
      "distance": "2.37 mi",
      "streetAddress": "2656 N TEUTONIA AVE",
      "city": "MILWAUKEE",
      "phone": "414-562-3117",
      "name": "TEUTONIA",
      "zip4": "9998",
      "state": "WI",
      "zip5": "53206"
    },
    {
      "parking": "Street",
      "hours": [
        {
          "weekdayHours": "9:00 AM - 5:00 PM"
        },
        {
          "saturdayHours": "9:00 AM - 12:00 PM"
        },
        {
          "sundayHours": "Closed"
        }
      ],
      "distance": "2.88 mi",
      "streetAddress": "3421 W VLIET ST",
      "city": "MILWAUKEE",
      "phone": "414-342-3339",
      "name": "MID CITY",
      "zip4": "9998",
      "state": "WI",
      "zip5": "53208"
    },
    {
      "parking": "Street",
      "hours": [
        {
          "weekdayHours": "8:30 AM - 6:00 PM"
        },
        {
          "saturdayHours": "9:00 AM - 1:00 PM"
        },
        {
          "sundayHours": "Closed"
        }
      ],
      "distance": "3.61 mi",
      "streetAddress": "1620 E CAPITOL DR",
      "city": "MILWAUKEE",
      "phone": "414-332-2241",
      "name": "SHOREWOOD",
      "zip4": "9998",
      "state": "WI",
      "zip5": "53211"
    },
    {
      "parking": "Lot",
      "hours": [
        {
          "weekdayHours": "8:00 AM - 5:00 PM"
        },
        {
          "saturdayHours": "9:00 AM - 12:00 PM"
        },
        {
          "sundayHours": "Closed"
        }
      ],
      "distance": "3.63 mi",
      "streetAddress": "1603 E OKLAHOMA AVE",
      "city": "MILWAUKEE",
      "phone": "414-481-0204",
      "name": "BAY VIEW SAINT FRANCIS",
      "zip4": "9998",
      "state": "WI",
      "zip5": "53207"
    },
    {
      "parking": "Lot",
      "hours": [
        {
          "weekdayHours": "9:00 AM - 6:00 PM"
        },
        {
          "saturdayHours": "9:30 AM - 2:00 PM"
        },
        {
          "sundayHours": "Closed"
        }
      ],
      "distance": "4.19 mi",
      "streetAddress": "4300 W LINCOLN AVE",
      "city": "MILWAUKEE",
      "phone": "414-643-0443",
      "name": "WEST MILWAUKEE",
      "zip4": "5012",
      "state": "WI",
      "zip5": "53219"
    }
  ]
}
